City_ID,City Name,Cloudiness,Country,Datetime,Humidity,Lat,Lng,Max Temp,Wind Speed
0,Mazatlán,1,MX,-25200,58,23.2167,-106.4167,76.91,0
1,Mweka,99,CD,7200,88,-4.85,21.5667,71.62,4.47
2,Puerto Ayora,43,EC,-21600,75,-0.7393,-90.3518,75.16,11.12
3,Consolación del Sur,67,CU,-18000,55,22.5047,-83.5136,83.79,2.84
4,Marawi,84,PH,28800,93,7.9986,124.2928,67.64,2.46
5,Cape Town,0,ZA,7200,57,-33.9258,18.4232,68.11,28.77
6,Mataura,100,NZ,46800,60,-46.1927,168.8643,57.02,8.19
7,Rikitea,7,PF,-32400,66,-23.1203,-134.9692,72.46,8.01
8,Upernavik,97,GL,-10800,88,72.7868,-56.1549,11.28,10.45
9,Porto Velho,40,BR,-14400,74,-8.7619,-63.9039,82.45,3.44
10,Pevek,26,RU,43200,84,69.7008,170.3133,-2.47,6.87
11,Punta Arenas,40,CL,-10800,58,-53.15,-70.9167,55.51,34.52
12,Quzhou,1,CN,28800,92,28.9594,118.8686,57.49,3.38
13,Busselton,2,AU,28800,73,-33.65,115.3333,55.04,10.83
14,Oriximiná,48,BR,-10800,52,-1.7656,-55.8661,89.98,4.14
15,Aswān,13,EG,7200,28,24.0934,32.907,73.89,13.35
16,Libertador General San Martín,89,AR,-10800,33,-23.8064,-64.7876,92.97,5.39
17,Paita,81,PE,-18000,71,-5.0892,-81.1144,79.36,9.37
18,Qaanaaq,96,GL,-14400,67,77.484,-69.3632,-2.88,7.05
19,Thunder Bay,90,CA,-18000,74,48.4001,-89.3168,29.55,2.3
20,‘Āhuimanu,40,US,-36000,81,21.4447,-157.8378,74.91,4.61
21,Knysna,29,ZA,7200,60,-34.0363,23.0471,64.78,5.79
22,Hermanus,0,ZA,7200,65,-34.4187,19.2345,68.9,12.1
23,Albany,42,US,-18000,66,42.6001,-73.9662,42.73,5.01
24,Hasaki,80,JP,32400,61,35.7333,140.8333,43.2,9.24
25,Bredasdorp,1,ZA,7200,55,-34.5322,20.0403,65.28,12.1
26,Vaini,20,TO,46800,94,-21.2,-175.2,68.16,0
27,Khonsa,0,IN,19800,83,27.0167,95.5667,57.31,4.14
28,Manggar,98,ID,25200,84,-2.8833,108.2667,78.98,5.19
29,Yoichi,90,JP,32400,70,43.2039,140.7703,39.22,19.6
30,Aginskoye,100,RU,32400,95,51.1,114.53,15.71,2.04
31,Honiara,100,SB,39600,85,-9.4333,159.95,77.41,3.31
32,New Norfolk,100,AU,39600,71,-42.7826,147.0587,51.66,0.67
33,Bluff,100,NZ,46800,72,-46.6,168.3333,57.42,12.88
34,Fortuna,75,US,-28800,75,40.5982,-124.1573,52.41,1.99
35,Nouadhibou,20,MR,0,64,20.931,-17.0347,75.18,14.97
36,Clyde River,75,CA,-18000,92,70.4692,-68.5914,7.03,4.61
37,San Matías,100,BO,-14400,73,-16.3667,-58.4,75.96,3.96
38,Ternate,90,ID,32400,80,0.8,127.4,81,5.28
39,Chokurdakh,94,RU,39600,100,70.6333,147.9167,-21.41,2.39
40,Santa Rosa de Osos,99,CO,-18000,51,6.6474,-75.4603,64.53,2.42
41,Pacific Grove,1,US,-28800,91,36.6177,-121.9166,57.09,3.44
42,Namtsy,100,RU,32400,98,62.7161,129.6658,-27.29,1.14
43,São João da Barra,100,BR,-10800,94,-21.6403,-41.0511,82.49,9.37
44,Asău,100,RO,7200,64,46.4333,26.4,45.52,7
45,Lebu,9,CL,-10800,73,-37.6167,-73.65,60.22,15.9
46,Severo-Kuril'sk,70,RU,39600,87,50.6789,156.125,35.89,3.67
47,Yangi Marg`ilon,0,UZ,18000,69,40.4272,71.7189,33.22,6.91
48,Hithadhoo,93,MV,18000,77,-0.6,73.0833,82.78,16.37
49,Pimentel,0,PE,-18000,60,-6.8367,-79.9342,73.69,13.8
50,Gitega Province,96,BI,7200,71,-3.5,29.95,67.75,4.03
51,West Bend,1,US,-21600,62,43.4253,-88.1834,35.2,5.01
52,Ushuaia,40,AR,-10800,58,-54.8,-68.3,51.46,31.07
53,Hirara,61,JP,32400,76,24.8,125.2833,75.7,22.32
54,Guerrero Negro,55,MX,-25200,77,27.9769,-114.0611,66.18,6.49
55,Port Alfred,34,ZA,7200,67,-33.5906,26.891,66.02,13.67
56,Hilo,20,US,-36000,87,19.7297,-155.09,76.28,6.91
57,Barrow,90,US,-32400,79,71.2906,-156.7887,12.22,13.8
58,Castro,94,BR,-10800,76,-24.7911,-50.0119,71.53,2.51
59,Barcelos,0,PT,0,51,41.5388,-8.6151,66.34,7.11
60,Piaçabuçu,69,BR,-10800,57,-10.4056,-36.4344,84.96,12.41
61,Qaqortoq,100,GL,-10800,78,60.7167,-46.0333,19.9,2.84
62,Praia da Vitória,40,PT,-3600,78,38.7333,-27.0667,70.05,13.15
63,Kruisfontein,6,ZA,7200,56,-34.0033,24.7314,62.89,12.75
64,Waddān,82,LY,7200,32,29.1614,16.139,75.49,8.75
65,Jamestown,90,US,-18000,87,42.097,-79.2353,36.52,8.01
66,Dhidhdhoo,69,MV,18000,70,6.8833,73.1,82.02,18.37
67,Hobart,90,AU,39600,88,-42.8794,147.3294,52.02,5.75
68,Tuktoyaktuk,90,CA,-25200,78,69.4541,-133.0374,8.6,17.27
69,Yellowknife,75,CA,-25200,84,62.456,-114.3525,-1.68,8.05
70,Chimbote,90,PE,-18000,74,-9.0853,-78.5783,68.61,9.71
71,Mar del Plata,0,AR,-10800,85,-38.0023,-57.5575,62.62,11.01
72,Marsabit,12,KE,10800,37,2.3284,37.9899,77.43,9.71
73,Saint George,1,US,-25200,49,37.1041,-113.5841,61.36,0
74,Bāgeshwar,0,IN,19800,54,29.85,79.7667,54.45,3.62
75,Barkly West,11,ZA,7200,14,-28.5354,24.5215,78.08,14.65
76,Inuvik,90,CA,-25200,88,68.3499,-133.7218,8.64,8.05
77,Kapaa,1,US,-36000,97,22.0752,-159.319,71.92,5.75
78,Airai,100,TL,32400,94,-8.9266,125.4092,63.19,2.15
79,Banda Aceh,96,ID,25200,79,5.5577,95.3222,79.84,9.69
80,Abu Dhabi,0,AE,14400,67,24.4667,54.3667,78.96,4.61
81,Palmer,75,US,-18000,55,42.1584,-72.3287,45.48,5.01
82,Puerto Guzmán,54,CO,-18000,63,0.9703,-76.5858,85.59,3.27
83,Padang,99,ID,25200,80,-0.9492,100.3543,77.05,3.24
84,Mount Gambier,100,AU,37800,81,-37.8333,140.7667,46,4.5
85,San Patricio,1,US,-21600,44,28.017,-97.5169,61.21,7.58
86,Nikolskoye,100,RU,10800,85,59.7035,30.7861,39.02,7.92
87,Necochea,0,AR,-10800,48,-38.5473,-58.7368,65.03,11.07
88,Emba,43,KZ,18000,90,48.8264,58.1442,22.01,10.18
89,Vila Velha,40,BR,-10800,67,-20.3297,-40.2925,89.55,11.01
90,East London,20,ZA,7200,72,-33.0153,27.9116,67.14,11.5
91,Ribeira Grande,40,PT,-3600,77,38.5167,-28.7,66.6,18.41
92,Horqueta,0,PY,-10800,39,-23.3428,-57.0597,84.16,7.14
93,Brownwood,90,US,-21600,34,31.7093,-98.9912,54.21,12.66
94,Hofn,75,IS,0,93,64.2539,-15.2082,32.02,3.44
95,Homer,1,US,-32400,70,59.6425,-151.5483,9.03,5.75
96,Hong Kong,20,HK,28800,78,22.2855,114.1577,75.38,1.99
97,Sinnamary,42,GF,-10800,78,5.3833,-52.95,82.54,6.82
98,Burns Lake,87,CA,-28800,98,54.2331,-125.7533,4.42,4.18
99,Grand Gaube,9,MU,14400,66,-20.0064,57.6608,77.38,3
100,Manokwari,63,ID,32400,77,-0.8667,134.0833,79.12,2.35
101,Darjeeling,15,IN,19800,90,27.0333,88.2667,45.25,3.47
102,Jasper,40,US,-21600,37,37.2001,-94.3502,47.35,8.01
103,Khatanga,71,RU,25200,85,71.9667,102.5,-15.14,7.47
104,Cortez,1,US,-25200,38,37.3489,-108.5859,49.69,5.75
105,Tasiilaq,98,GL,-10800,71,65.6145,-37.6368,24.96,5.73
106,Mayo,1,US,-18000,45,38.8876,-76.5119,48.25,15.01
107,San Jose,75,US,-28800,89,37.3394,-121.895,57.85,9.22
108,Coquimbo,75,CL,-10800,77,-29.9533,-71.3436,60.53,10.36
109,Hamilton,1,US,-18000,56,39.1834,-84.5333,40.59,3
110,Mehamn,75,NO,3600,100,71.0357,27.8492,35.51,5.75
111,Port Elizabeth,20,ZA,7200,72,-33.918,25.5701,66.49,13.8
112,Avarua,20,CK,-36000,83,-21.2078,-159.775,75.25,8.05
113,Chui,0,UY,-10800,40,-33.6971,-53.4616,75.16,4.32
114,Neiafu,40,TO,46800,94,-18.65,-173.9833,72.28,0
115,Manta,40,EC,-18000,65,-0.95,-80.7333,80.38,4.61
116,Pisco,20,PE,-18000,77,-13.7,-76.2167,68.05,11.5
117,Codrington,79,AU,39600,80,-38.2667,141.9667,46.29,4.94
118,Arraial do Cabo,90,BR,-10800,83,-22.9661,-42.0278,78.76,9.22
119,Sandpoint,90,US,-28800,93,48.2766,-116.5533,33.69,0
120,Sørland,61,NO,3600,67,67.667,12.6934,42.66,32.08
121,Hargeisa,41,SO,10800,40,9.56,44.065,67.98,9.42
122,Novy Urengoy,80,RU,18000,100,66.0833,76.6333,-18.92,4.56
123,Marystown,100,CA,-12600,100,47.1666,-55.1483,54.86,8.99
124,George Town,20,MY,28800,83,5.4112,100.3354,82.33,0
125,Vila Franca do Campo,89,PT,-3600,60,37.7167,-25.4333,68.41,4.5
126,Kahului,20,US,-36000,84,20.8947,-156.47,76.84,0
127,San-Pédro,25,CI,0,72,4.7485,-6.6363,83.59,8.81
128,Abu Samrah,90,SY,7200,54,35.3029,37.1841,62.91,6.53
129,Ordzhonīkīdze,97,KZ,21600,92,52.4411,61.7408,22.33,16.4
130,Gimli,100,CA,-21600,74,50.6336,-96.9907,26.62,23.02
131,Coahuayana Viejo,2,MX,-21600,41,18.7333,-103.6833,83.68,0.78
132,Santoña,0,ES,3600,63,43.4439,-3.4576,63.93,9.51
133,Balbriggan,35,IE,0,83,53.6128,-6.1819,54.09,10.42
134,Viedma,5,AR,-10800,31,-40.8135,-62.9967,74.73,11.5
135,Vikhorevka,100,RU,28800,93,56.1201,101.1636,11.79,1.54
136,Carutapera,45,BR,-10800,72,-1.195,-46.02,85.59,10.78
137,Ugoofaaru,66,MV,18000,69,5.6667,73,82.09,20.54
138,Port Macquarie,100,AU,39600,89,-31.4333,152.9167,67.96,9.26
139,Vardø,75,NO,3600,93,70.3705,31.1107,35.58,4.61
140,Cuencamé de Ceniceros,27,MX,-21600,65,24.8711,-103.6964,56.61,4.72
141,Saskylakh,20,RU,32400,99,71.9167,114.0833,-23.24,6.35
142,Le Port,17,RE,14400,91,-20.9373,55.2919,78.8,6.17
143,Thompson,75,CA,-21600,93,55.7435,-97.8558,23.16,4.61
144,Sitka,40,US,-32400,86,57.0531,-135.33,30.09,8.05
145,Christchurch,51,NZ,46800,80,-43.5333,172.6333,51.94,5.75
146,Saint-Philippe,74,RE,14400,76,-21.3585,55.7679,78.39,11.12
147,Goderich,100,CA,-18000,60,43.7501,-81.7165,39.9,17.27
148,Srednekolymsk,100,RU,39600,99,67.45,153.6833,-11.36,1.59
149,Atuona,6,PF,-34200,75,-9.8,-139.0333,77.43,13.44
150,Boshnyakovo,99,RU,39600,83,49.6333,142.1667,23.94,15.88
151,Naze,54,JP,32400,82,28.3667,129.4833,66.16,11.79
152,Marabu,40,MY,28800,100,4.4148,114.0089,77.14,6.91
153,Mahébourg,40,MU,14400,83,-20.4081,57.7,77.25,5.75
154,Valleyview,69,CA,-25200,86,55.0667,-117.2859,15.84,12.66
155,Yurga,100,RU,25200,92,55.7231,84.8861,1.49,14.18
156,Alta Floresta,89,BR,-14400,65,-9.8756,-56.0861,83.61,6.06
157,Cabo San Lucas,1,MX,-25200,74,22.8909,-109.9124,78.51,1.01
158,Umluj,4,SA,10800,56,25.0213,37.2685,78.13,16.55
159,Nanortalik,100,GL,-10800,68,60.1432,-45.2371,26.87,5.7
160,Kapit,93,MY,28800,99,2.0167,112.9333,73.65,0.98
161,Mossamedes,12,AO,3600,71,-15.1961,12.1522,74.55,15.37
162,Nakhon Phanom,81,TH,25200,75,17.3333,104.4167,75.27,0.72
163,Uyuni,31,BO,-14400,4,-20.4597,-66.825,59.99,10.71
164,San Quintín,94,MX,-28800,79,30.4833,-115.95,63.34,5.95
165,Bethel,40,US,-18000,54,41.3712,-73.414,46.76,4
166,Makakilo City,1,US,-36000,83,21.3469,-158.0858,73.72,4.61
167,Igarka,100,RU,25200,94,67.4667,86.5833,-7.91,18.1
168,Salalah,20,OM,14400,74,17.0151,54.0924,80.69,3.44
169,Ballitoville,75,ZA,7200,72,-29.539,31.2144,67.24,1.14
170,Kavaratti,100,IN,19800,75,10.5669,72.642,81.37,14.43
171,Stornoway,75,GB,0,100,58.2093,-6.3865,53.56,16.11
172,Denpasar,20,ID,28800,94,-8.65,115.2167,78.46,3.44
173,Esperance,100,AU,28800,66,-33.8667,121.9,57.16,6.71
174,Ibrā’,0,OM,14400,41,22.6906,58.5334,73.33,4.23
175,Avon Park,60,US,-18000,73,27.5959,-81.5062,80.82,12.39
176,Pemberton,44,CA,-28800,92,50.3164,-122.8027,26.46,1.79
177,Tamala,100,RU,10800,98,52.541,43.2515,29.35,7.07
178,Sept-Îles,40,CA,-18000,80,50.2001,-66.3821,39.72,5.99
179,Havøysund,100,NO,3600,98,70.9963,24.6622,32.88,6.49
180,Blytheville,1,US,-21600,50,35.9273,-89.919,44.74,10.36
181,Port-Gentil,38,GA,3600,81,-0.7193,8.7815,81.01,14.41
182,Rio Grande,0,BR,-10800,47,-32.035,-52.0986,74.95,8.08
183,Wattegama,98,LK,19800,93,6.7989,81.4808,75.06,3.47
184,San Cristobal,83,VE,-14400,53,7.7669,-72.225,71.78,0.92
185,Tezu,0,IN,19800,45,27.9167,96.1667,63.61,4.54
186,Souillac,40,MU,14400,83,-20.5167,57.5167,77.36,5.75
187,Dongargaon,100,IN,19800,51,20.9667,80.85,77.41,7.05
188,Talcahuano,0,CL,-10800,68,-36.7167,-73.1167,64.08,6.91
189,Qian’an,99,CN,28800,94,44.9932,124.0581,20.41,2.57
190,Ostrovnoy,100,RU,10800,93,68.0531,39.5131,28.67,4.23
191,Gizo Government Station,100,SB,39600,79,-8.103,156.8419,79.97,8.25
192,Caronport,79,CA,-21600,87,50.4501,-105.8179,25,8.25
193,Boa Vista,75,BR,-14400,46,2.8197,-60.6733,93.18,16.11
194,Kollegāl,90,IN,19800,94,12.15,77.1167,74.59,2.55
195,Lianzhou,100,CN,28800,83,24.7811,112.3825,68.36,0.54
196,Edgewater,75,US,-18000,78,28.9889,-80.9023,80.69,9.22
197,Goya,0,AR,-10800,23,-29.14,-59.2626,84.2,4.59
198,Ciudad Bolivar,84,VE,-14400,45,8.1222,-63.5497,91.81,7.78
199,Ust-Tsilma,100,RU,10800,95,65.441,52.1498,24.93,9.28
200,Moose Factory,20,CA,-18000,74,51.2585,-80.6094,26.6,18.41
201,Harindānga,87,IN,19800,51,22.0383,88.3214,76.98,3.87
202,Conceição das Alagoas,97,BR,-10800,78,-19.9147,-48.3883,78.58,11.88
203,Charleston,1,US,-18000,35,32.7766,-79.9309,59.09,8.01
204,Ýpsonas,20,CY,7200,64,34.6884,32.9574,67.17,10.36
205,Odienné,36,CI,0,29,9.51,-7.5692,91.78,6.06
206,Saldanha,0,ZA,7200,74,-33.0117,17.9442,68.05,26.6
207,Butaritari,100,KI,43200,82,3.0707,172.7902,79.99,15.52
208,Kashgar,0,CN,28800,38,39.4547,75.9797,38.41,6.71
209,Chake Chake,6,TZ,10800,77,-5.2459,39.7666,78.64,9.46
210,Itamaracá,52,BR,-10800,58,-7.7478,-34.8256,86.68,11.48
211,Deputatsky,100,RU,36000,96,69.3,139.9,-10.88,2.21
212,Chumikan,19,RU,36000,86,54.7183,135.315,3.51,13.44
213,Provideniya,6,RU,43200,90,64.3833,-173.3,7.47,7.47
214,Lompoc,90,US,-28800,92,34.6391,-120.4579,57.13,0
215,Guarapuava,95,BR,-10800,70,-25.3953,-51.4581,70.66,2.82
216,Estelle,20,US,-21600,45,29.8458,-90.1067,59.04,11.5
217,Simplício Mendes,58,BR,-10800,24,-7.8539,-41.9103,100.42,5.7
218,Zamora,100,EC,-18000,59,-4.0692,-78.9567,85.24,4.25
219,Porto-Novo,10,BJ,3600,70,6.4965,2.6036,84.02,9.42
220,Mahon,20,ES,3600,88,39.8885,4.2658,59.56,9.22
221,Saint Paul Harbor,75,US,-32400,63,57.79,-152.4072,20.71,8.05
222,Tallahassee,1,US,-18000,48,30.4383,-84.2807,65.68,1.01
223,Belen,75,TR,10800,39,36.4891,36.2233,57.34,6.91
224,Adrar,36,MR,0,18,20.5022,-10.0711,88.43,13.24
225,Caravelas,32,BR,-10800,62,-17.7125,-39.2481,84.79,12.1
226,Tikrit,5,IQ,10800,29,34.6071,43.6782,63.57,2.24
227,Nālūt,99,LY,7200,43,30.3333,10.85,72.36,15.1
228,Lagoa,84,PT,-3600,72,39.05,-27.9833,65.37,19.24
229,Bilma,3,NE,3600,14,18.6853,12.9164,88.09,6.22
230,Rocha,5,UY,-10800,32,-34.4833,-54.3333,79.57,3.74
231,Kaeo,100,NZ,46800,90,-35.1,173.7833,56.32,4.83
232,Lüderitz,0,NA,7200,56,-26.6481,15.1594,69.51,29.82
233,Middelburg,42,ZA,7200,75,-25.7751,29.4648,65.19,17.72
234,Lavrentiya,6,RU,43200,86,65.5833,-171,4.59,6.26
235,Ust-Nera,78,RU,36000,99,64.5667,143.2,-14.48,3.94
236,Paamiut,100,GL,-10800,68,61.994,-49.6678,20.41,7.99
237,Grindavik,40,IS,0,81,63.8424,-22.4338,41.47,18.41
238,Khani,100,GE,14400,81,41.9563,42.9566,38.77,0.49
239,Kloulklubed,45,PW,32400,74,7.0419,134.2556,77.5,8.84
240,Acaraú,8,BR,-10800,56,-2.8856,-40.12,90.21,21.07
241,Marabá,40,BR,-10800,66,-5.3686,-49.1178,89.78,4.61
242,Binga,100,ZW,7200,56,-17.6203,27.3414,78.75,5.14
243,Suileng,100,CN,28800,94,47.25,127.0833,11.32,3.96
244,São Desidério,44,BR,-10800,37,-12.3633,-44.9733,92.23,4.94
245,Katobu,100,ID,28800,93,-4.9408,122.5276,75.56,3.38
246,Faya,27,SA,10800,78,18.3851,42.4509,62.71,7.7
247,North Bend,90,US,-28800,97,43.4065,-124.2243,49.06,5.75
248,Neverkino,100,RU,10800,96,52.7854,46.7417,27.5,10.83
249,Leningradskiy,57,RU,43200,79,69.3833,178.4167,-3.77,4.88
250,Norman Wells,75,CA,-25200,77,65.282,-126.8329,-5.76,5.75
251,Shintomi,0,JP,32400,70,32.0785,131.4723,53.35,4.34
252,Bubaque,22,GW,0,56,11.2833,-15.8333,84.47,6.6
253,Mahibadhoo,14,MV,18000,81,3.7833,72.9667,82.33,20.22
254,Tateyama,71,JP,32400,62,34.9833,139.8667,55.42,11.14
255,Krasne,100,UA,7200,92,49.9145,24.6134,45.75,17.25
256,Pueblo Bello,85,CO,-18000,79,8.2041,-76.526,81.36,3.44
257,Omsukchan,97,RU,39600,99,62.5333,155.8,4.66,1.79
258,Ahipara,100,NZ,46800,76,-35.1667,173.1667,55.54,4.25
259,Cruz Grande,31,MX,-21600,53,16.7333,-99.1333,82.78,2.21
260,Havelock,99,US,-18000,56,34.8791,-76.9013,55.35,3
261,Tura,8,IN,19800,86,25.5198,90.2201,62.64,3.04
262,Kailua,40,US,-36000,78,21.4022,-157.7394,75.18,4.61
263,Ponta do Sol,32,PT,0,87,32.6667,-17.1,64.71,5.1
264,Cidreira,98,BR,-10800,68,-30.1811,-50.2056,66.96,7.31
265,San Andrés,20,CO,-18000,70,12.5847,-81.7006,87.82,11.5
266,Jalu,6,LY,7200,29,29.0331,21.5482,71.98,5.5
267,Anadyr,75,RU,43200,84,64.75,177.4833,-3.5,11.18
268,Solnechnyy,57,RU,36000,94,50.7214,136.6319,10.47,4.14
269,Katsuura,79,JP,32400,63,35.1333,140.3,55.51,9.01
270,Bima,94,ID,28800,87,-8.4667,118.7167,78.76,2.15
271,Krasnosel'kup,100,RU,18000,97,65.7,82.4667,-3.17,11.81
272,Oranjestad,20,AW,-14400,62,12.524,-70.027,85.95,19.57
273,Tanout,16,NE,3600,9,14.9709,8.8879,91.06,12.24
274,Kawalu,100,ID,25200,97,-7.3817,108.2082,71.82,1.59
275,Ust'-Kan,47,RU,25200,84,50.9276,84.761,-4.27,4.9
276,Acajutla,95,SV,-21600,54,13.5928,-89.8275,91.74,3.33
277,Liverpool,40,GB,0,86,53.4106,-2.9779,56.68,1.99
278,Half Moon Bay,90,US,-28800,90,37.4636,-122.4286,58.1,0
279,Khasan,3,RU,36000,58,42.4308,130.6434,34.32,8.39
280,Bengkulu,100,ID,25200,89,-3.8004,102.2655,75.69,4.5
281,Rosario,0,AR,-10800,29,-32.9468,-60.6393,91.08,4
282,Arman',71,RU,39600,82,59.7,150.1667,13.69,10.6
283,Newport,72,GB,0,86,51.5877,-2.9984,56.62,6.15
284,Buta,99,CD,7200,78,2.7858,24.73,78.69,4.07
285,Zonguldak,100,TR,10800,91,41.25,31.8333,43.25,1.86
286,Gravdal,75,NO,3600,75,68.1214,13.5031,40.89,31.07
287,Tazovsky,98,RU,18000,100,67.4667,78.7,-16.85,2.15
288,Hualmay,92,PE,-18000,72,-11.0964,-77.6139,68.77,9.08
289,Antalaha,4,MG,10800,79,-14.9003,50.2788,76.59,8.66
290,Mountrath,4,IE,0,83,52.9989,-7.4728,50.59,4.23
291,Cartagena del Chairá,56,CO,-18000,40,1.3349,-74.8429,91.29,5.86
292,Pahrump,99,US,-28800,29,36.2083,-115.9839,65.32,5.01
293,Nantucket,34,US,-18000,61,41.2835,-70.0995,50.97,22.73
294,Huarmey,23,PE,-18000,75,-10.0681,-78.1522,68.99,9.4
295,Nizhniy Kuranakh,32,RU,32400,99,58.8353,125.4869,-14.78,2.51
296,Longyearbyen,20,SJ,3600,57,78.2186,15.6401,12.04,20.71
297,Kuytun,99,RU,28800,95,54.3419,101.5036,5.47,3.62
298,Seoul,40,KR,32400,100,37.5683,126.9778,49.51,2.3
299,Yar-Sale,13,RU,18000,98,66.8333,70.8333,-13.07,8.37
300,Labuhan,100,ID,25200,79,-6.8844,112.2051,81.21,4.21
301,Laguna,90,US,-28800,94,38.421,-121.4238,58.14,1.01
302,Rehoboth,15,NA,7200,7,-23.3167,17.0833,86.67,21.56
303,Ormoc City,71,PH,28800,88,11.0064,124.6075,77.07,1.81
304,Coron,53,PH,28800,85,11.9986,120.2043,78.3,2.39
305,Urucará,99,BR,-14400,61,-2.5364,-57.76,87.12,2.26
306,Skibbereen,100,IE,0,72,51.55,-9.2667,51.6,8.86
307,Geraldton,0,AU,28800,77,-28.7667,114.6,61.21,11.5
308,Ust-Kuyga,100,RU,36000,99,70.0167,135.6,-5.57,3.85
309,Namatanai,95,PG,36000,82,-3.6667,152.4333,78.62,1.54
310,Rudnya,100,RU,10800,99,54.947,31.0934,39.33,6.8
311,Cedar City,1,US,-25200,32,37.6775,-113.0619,48.4,8.05
312,Ürümqi,75,CN,28800,93,43.801,87.6005,23.95,2.24
313,Verāval,91,IN,19800,73,20.9,70.3667,81.07,4.32
314,Novonikolayevskiy,100,RU,10800,94,50.9738,42.3649,30.78,6.62
315,Torbay,90,CA,-12600,96,47.6666,-52.7314,45.27,29.93
316,Mudgee,100,AU,39600,100,-32.5943,149.5871,61.63,3.44
317,Bolu Province,100,TR,10800,95,40.6667,31.5833,40.05,3.15
318,Carnarvon,0,AU,28800,78,-24.8667,113.6333,69.87,18.41
319,Baoding,100,CN,28800,66,38.8511,115.4903,46.17,3.69
320,Campos dos Goytacazes,90,BR,-10800,74,-21.75,-41.3,82.45,9.22
321,Semnan,2,IR,12600,58,35.5729,53.3971,42.62,1.19
322,Vanimo,93,PG,36000,86,-2.6741,141.3028,78.51,0.89
323,Sorong,60,ID,32400,74,-0.8833,131.25,81.75,9.1
324,Hénin-Beaumont,90,FR,3600,89,50.4167,2.9333,54.16,5.75
325,Mubārakpur,47,IN,19800,58,26.09,83.2922,71.26,5.21
326,Suez,22,EG,7200,50,29.9737,32.5263,69.51,13.89
327,Kaiserslautern,90,DE,3600,65,49.45,7.75,49.84,3.44
328,Arrondissement de Parthenay,1,FR,3600,60,46.6667,-0.4167,51.49,8.41
329,Mahajanga,20,MG,10800,65,-15.7167,46.3167,82.42,10.36
330,Aripuanã,100,BR,-14400,100,-9.1667,-60.6333,72.68,2.21
331,Chicama,100,PE,-18000,65,-7.8447,-79.1469,64.94,6.8
332,Mae Sai,58,TH,25200,84,20.4335,99.8762,72.72,2.42
333,Ixtapa,1,MX,-21600,61,20.7,-105.2,76.23,0
334,Sivaki,11,RU,32400,86,52.6333,126.75,8.2,3.02
335,Damietta,67,EG,7200,61,31.4165,31.8133,68.95,17.85
336,Katangli,99,RU,39600,84,51.7102,143.2326,26.17,22.86
337,Mandalgovi,57,MN,28800,55,45.7625,106.2708,17.85,6.91
338,Pangnirtung,90,CA,-18000,58,66.1451,-65.7125,23,4.61
339,Avera,29,US,-18000,23,33.194,-82.5271,58.51,11.99
340,Marsh Harbour,100,BS,-18000,85,26.5412,-77.0636,73.24,20.69
341,Broome,90,US,-18000,64,42.2506,-75.833,42.15,5.99
342,Dunedin,100,NZ,46800,66,-45.8742,170.5036,54.81,3
343,Quang Ngai,74,VN,25200,92,15.1167,108.8,74.16,2.42
344,Dikson,64,RU,25200,95,73.5069,80.5464,-16.58,0.85
345,Salinópolis,42,BR,-10800,73,-0.6136,-47.3561,84.99,11.97
346,Alūr,97,IN,19800,97,12.9833,75.9833,66.63,3.02
347,Murray,90,US,-25200,60,40.6669,-111.888,53.94,5.75
348,Turaif,20,SA,10800,45,31.6725,38.6637,64.65,4.61
349,Khovd,8,MN,25200,26,48.0056,91.6419,15.48,11.01
350,Shanghai,0,CN,28800,77,31.2222,121.4581,60.93,6.71
351,Tunggol,25,PH,28800,83,5.8446,121.1544,80.64,0.67
352,Kupang,100,ID,28800,81,-10.1667,123.5833,80.96,2.98
353,Aykhal,99,RU,32400,100,66,111.5,-14.51,5.08
354,Kismayo,5,SO,10800,79,-0.3582,42.5454,80.24,10.96
355,Walvis Bay,0,NA,7200,55,-22.9575,14.5053,67.15,12.66
356,Vestmannaeyjar,75,IS,0,81,63.4427,-20.2734,43.79,20.71
357,Kandi,8,BJ,3600,11,11.1342,2.9386,98.94,7.31
358,Palana,93,RU,43200,92,59.1167,159.9667,13.55,5.57
359,Dabakala,12,CI,0,30,8.3667,-4.4333,95.32,7.45
360,Makat,95,KZ,18000,57,47.6469,53.3463,31.05,14.94
361,Semey,11,KZ,21600,87,50.4111,80.2275,4.86,7.18
362,Talnakh,100,RU,25200,95,69.4865,88.3972,2.34,6.64
363,Buraidah,37,SA,10800,29,26.326,43.975,77.45,9.53
364,Rabo de Peixe,40,PT,-3600,56,37.8,-25.5833,67.51,8.05
365,Husavik,98,IS,0,92,66.0449,-17.3389,31.91,4.88
366,Karabash,100,RU,18000,66,55.4808,60.2157,27.32,8.9
367,Port Augusta,100,AU,37800,91,-32.5,137.7667,65.71,3.87
368,Ayan,85,RU,36000,78,56.45,138.1667,8.46,18.86
369,Comodoro Rivadavia,0,AR,-10800,23,-45.8667,-67.5,76.86,17.27
370,Bandar,93,ID,25200,95,2.05,99.75,74.64,2.17
371,Ratodero,0,PK,18000,16,27.803,68.2871,66.22,3.78
372,Coos Bay,90,US,-28800,97,43.3665,-124.2179,50.02,5.75
373,Los Llanos de Aridane,75,ES,0,72,28.6585,-17.9182,66.13,5.01
374,Porkhov,100,RU,10800,88,57.765,29.5561,37.29,9.84
375,Kiryat Gat,69,IL,7200,63,31.61,34.7642,65.08,9.57
376,Narsaq,100,GL,-10800,70,60.9167,-46.05,19.62,4.38
377,Aksarka,67,RU,18000,97,66.5606,67.7975,-11.06,5.32
378,Yulara,28,AU,34200,24,-25.2406,130.9889,78.64,9.22
379,Touros,27,BR,-10800,54,-5.1989,-35.4608,90.5,17.16
380,Matamoros,1,MX,-21600,60,25.5333,-103.25,59.11,6.91
381,Lac du Bonnet,100,CA,-21600,82,50.2536,-96.0612,22.59,10.94
382,Kimbe,100,PG,36000,94,-5.5502,150.1429,75.09,3.56
383,Arlit,73,NE,3600,9,18.7369,7.3853,93.38,2.66
384,Cabo Rojo,27,PR,-14400,65,18.0866,-67.1457,88.92,5.01
385,Isangel,100,VU,39600,92,-19.55,169.2667,73.92,20.45
386,Tumalaytay,98,PH,28800,85,12.2758,123.232,79.29,3.96
387,Te Anau,100,NZ,46800,93,-45.4167,167.7167,52,8.14
388,Aklavik,75,CA,-25200,78,68.2191,-135.0107,8.6,13.8
389,Leh,0,IN,19800,56,34.1667,77.5833,19.18,3.18
390,Mount Isa,12,AU,36000,65,-20.7333,139.5,76.77,0
391,Lufilufi,97,WS,46800,81,-13.8745,-171.5986,81.64,16.04
392,Amahai,65,ID,32400,85,-3.3333,128.9167,79.05,4.65
393,Najrān,3,SA,10800,27,17.4924,44.1277,75.85,4.61
394,Palembang,100,ID,25200,92,-2.9167,104.7458,76.26,0.58
395,Usinsk,100,RU,10800,86,65.9939,57.5281,19.9,21.56
396,Tangjiazhuang,100,CN,28800,50,39.7333,118.45,40.84,4.05
397,Praia,20,CV,-3600,78,14.9215,-23.5087,79.34,13.8
398,Haimen,52,CN,28800,83,23.1935,116.6142,69.69,18.95
399,Pundaguitan,94,PH,28800,76,6.3711,126.1689,82.54,4.83
400,Cherskiy,16,RU,39600,95,68.75,161.3,-8.82,3.65
401,Belyy Yar,0,RU,25200,44,53.6039,91.3903,13.89,11.18
402,Sumbawanga,100,TZ,10800,47,-7.9667,31.6167,68.99,2.77
403,Española,53,US,-25200,32,35.9911,-106.0806,49.64,0.27
404,Vao,100,NC,39600,84,-22.6667,167.4833,71.49,13.87
405,Varna,0,BG,7200,76,43.2167,27.9167,48.24,8.05
406,Synya,100,RU,10800,80,65.3718,58.0387,20.28,13.96
407,Chaozhou,5,CN,28800,91,23.6651,116.6379,69.66,2.3
408,Cockburn Town,23,TC,-18000,76,21.4612,-71.1419,81.52,18.48
409,Klaksvík,98,FO,0,81,62.2266,-6.589,47.32,22.48
410,Panzhihua,1,CN,28800,71,26.5851,101.7128,55.8,1.34
411,Mattawa,100,US,-28800,99,46.7379,-119.9028,37.92,3.62
412,Kpandae,12,GH,0,25,8.4689,-0.0113,97.5,2.84
413,Jijiga,71,ET,10800,37,9.35,42.8,67.89,14.43
414,Ossora,100,RU,43200,96,59.2353,163.0719,31.24,16.84
415,Carballo,0,ES,3600,66,43.213,-8.691,65.07,3.06
416,Tautira,61,PF,-36000,74,-17.7333,-149.15,77.02,20.76
417,Nyurba,75,RU,32400,100,63.2842,118.3319,-18.49,2.13
418,Vetluzhskiy,100,RU,10800,92,58.3902,45.4654,32.29,10.83
419,Monrovia,67,LR,0,76,6.3005,-10.7969,89.37,9.51
420,Mastic Beach,1,US,-18000,52,40.7668,-72.8521,48.24,5.99
421,Jackson,75,US,-28800,93,42.4165,-122.8345,50.04,0
422,Kaitangata,100,NZ,46800,67,-46.2817,169.8464,50.92,5.64
423,Takoradze,8,GH,0,71,4.8845,-1.7554,83.52,8.93
424,Coremas,29,BR,-10800,26,-7.0144,-37.9458,99.54,4.79
425,Pālampur,0,IN,19800,28,32.1167,76.5333,53.56,6.55
426,Waingapu,99,ID,28800,79,-9.6567,120.2641,81.25,5.99
427,Esim,14,GH,0,70,4.8699,-2.2405,84.45,11.03
428,Antón Lizardo,38,MX,-21600,72,19.05,-95.9833,79.21,24.85
429,Lima,90,PE,-18000,72,-12.0432,-77.0282,73.9,6.91
430,Ancud,2,CL,-10800,72,-41.8697,-73.8203,63.93,8.21
431,Teya,99,RU,25200,95,60.3778,92.6267,2.01,3.8
432,Malanje,96,AO,3600,82,-9.5402,16.341,72.07,4.61
433,Sur,0,OM,14400,56,22.5667,59.5289,75.85,8.28
434,Aleksandrov Gay,100,RU,14400,82,50.147,48.5704,37.35,18.25
435,Aksu,0,CN,28800,40,41.1231,80.2644,33.49,1.7
436,Snezhnogorsk,100,RU,10800,99,69.1933,33.2531,24.58,2.82
437,Ascension,1,US,-21600,47,30.2169,-90.9001,59.02,4.61
438,Krasnovishersk,100,RU,18000,95,60.4078,57.082,25.63,11.63
439,Auki,100,SB,39600,84,-8.7676,160.7034,77.47,1.66
440,Lukovetskiy,100,RU,10800,89,64.2956,41.9211,31.98,11.03
441,Santiago de las Vegas,40,CU,-18000,66,22.97,-82.3869,83.82,5.99
442,Irecê,27,BR,-10800,36,-11.3042,-41.8558,88.9,5.57
443,Kununurra,5,AU,28800,65,-15.7667,128.7333,80.58,3.44
444,Puerto Escondido,21,MX,-21600,54,15.85,-97.0667,84.09,1.68
445,Sistranda,100,NO,3600,77,63.7256,8.834,40.89,28.23
446,Dudinka,100,RU,25200,95,69.4058,86.1778,2.07,8.43
447,Yatou,34,CN,28800,66,37.15,122.3833,46.18,4
448,Ilulissat,20,GL,-10800,56,69.2167,-51.1,8.62,24.16
449,Nemuro,21,JP,32400,67,43.3236,145.575,42.48,31.56
450,Nsanje,39,MW,7200,48,-16.92,35.262,90.82,14.61
451,Shimoda,58,JP,32400,76,34.6667,138.95,54.1,11.14
452,Saint Anthony,1,US,-21600,69,45.0205,-93.218,32.67,5.01
453,Meulaboh,100,ID,25200,85,4.1363,96.1285,76.66,3.56
454,Luang Prabang,39,LA,25200,84,19.8856,102.1347,71.49,0.96
455,Fairbanks,1,US,-32400,76,64.8378,-147.7164,-9.69,0
456,Lázaro Cárdenas,5,MX,-21600,63,17.9583,-102.2,80.11,2.1
457,Khorixas,5,NA,7200,14,-20.3667,14.9667,87.06,20.49
458,Mungwi,44,ZM,7200,38,-10.1732,31.3694,78.13,2.24
459,Troitskoye,100,RU,25200,89,52.9821,84.6757,5.29,13.15
460,Bolshaya Rechka,77,RU,28800,93,51.9503,104.7355,3.47,2.21
461,Krasnoye-na-Volge,100,RU,10800,96,57.5125,41.2419,33.3,12.64
462,Peniche,30,PT,0,56,39.3558,-9.3811,68.29,11.61
463,Bandarbeyla,83,SO,10800,71,9.4942,50.8122,78.46,15.82
464,Seymchan,100,RU,39600,99,62.8833,152.4333,-2.94,1.1
465,College,40,US,-32400,76,64.8569,-147.8028,-9.71,0
466,Praia,20,CV,-3600,78,14.9215,-23.5087,79.34,13.8
467,Pangody,100,RU,18000,100,65.85,74.4859,-20.7,4.38
468,Guildford,90,GB,0,85,51.2354,-0.5743,53.78,1.01
469,Severnyy,90,RU,10800,93,50.677,36.5532,33.84,11.18
470,Faanui,32,PF,-36000,77,-16.4833,-151.75,80.28,22.12
471,Øksfjord,100,NO,3600,93,70.2396,22.3479,32.92,4.81
472,Campbell River,20,CA,-28800,98,50.0163,-125.2446,35.26,3.44
473,Isla Mujeres,47,MX,-18000,69,21.2311,-86.731,82.45,7.47
474,Whitehorse,75,CA,-25200,76,60.7161,-135.0538,-6.7,4
475,Bukama,97,CD,7200,56,-9.2,25.85,82.92,3
476,Kamenka,100,RU,10800,97,51.3223,42.7678,30.74,6.44
477,Ust'-Omchug,99,RU,39600,100,61.15,149.6333,-10.91,1.61
478,Tuatapere,98,NZ,46800,82,-46.1333,167.6833,54.45,5.79
479,Grand-Lahou,40,CI,0,71,5.1367,-5.0242,84.38,8.97
480,Acapulco de Juárez,1,MX,-21600,74,16.8634,-99.8901,84.02,6.91
481,Galich,100,RU,10800,90,58.3797,42.3475,32.83,10.02
482,Safaga,0,EG,7200,51,26.7292,33.9365,73.51,21.97
483,Puerto del Rosario,20,ES,0,68,28.5004,-13.8627,74.88,11.5
484,Taltal,0,CL,-10800,65,-25.4,-70.4833,65.91,8.03
485,Statesboro,85,US,-18000,28,32.4488,-81.7832,63.72,13.56
486,Valle del Guamuez,51,CO,-18000,60,0.4525,-76.9192,76.42,3.78
487,Selfoss,90,IS,0,90,63.9331,-20.9971,43.68,5.5
488,Oddur,80,SO,10800,36,4.1213,43.8894,85.59,2.73
489,Savannah Bight,100,HN,-21600,73,16.45,-85.85,82.99,7.43
490,Guangyuan,100,CN,28800,76,32.442,105.823,55.58,1.28
491,Altamont,75,US,-28800,91,42.2068,-121.7372,42.78,4
492,Pierre,1,US,-21600,54,44.3683,-100.351,36.86,1.99
493,Igreja Nova,92,BR,-10800,49,-10.1253,-36.6619,87.53,13.82
494,Esqueda,96,MX,-25200,31,30.7167,-109.5833,54.52,4
495,Río Gallegos,40,AR,-10800,28,-51.6226,-69.2181,68.05,46.04
496,Punta Alta,1,AR,-10800,44,-38.8759,-62.0736,67.86,6.93
497,Sangar,100,RU,32400,97,63.9242,127.4739,-11.38,2.15
498,Esmeraldas,100,BR,-10800,86,-19.7625,-44.3139,77.86,6.46
499,Port Blair,100,IN,19800,82,11.6667,92.75,80.64,7.11
500,Sidi Ali,99,DZ,3600,54,36.0998,0.4206,64.42,9.42
501,Havre-St-Pierre,90,CA,-18000,93,50.2334,-63.5986,41,10.36
502,Llanes,0,ES,3600,61,43.4198,-4.7549,61.27,3.4
503,Constitución,12,CL,-10800,66,-35.3333,-72.4167,64.92,5.14
504,Tromsø,40,NO,3600,80,69.6496,18.957,34.38,3.44
505,Ulaangom,90,MN,25200,46,49.9811,92.0667,14.92,7.14
506,Peru,1,US,-18000,62,40.7537,-86.0689,38.57,5.75
507,Gigmoto,28,PH,28800,88,13.7796,124.39,78.84,4.14
508,Xiaoshan,54,CN,28800,88,30.1675,120.2588,59.85,4.47
509,Mariāni,1,IN,19800,89,26.6667,94.3333,63.25,2.24
510,Concepción del Oro,24,MX,-21600,65,24.6333,-101.4167,53.6,7.31
511,Nārāyanavanam,96,IN,19800,94,13.4167,79.5833,75.29,2.57
512,‘Ewa Beach,1,US,-36000,83,21.3156,-158.0072,75.15,4.61
513,Westport,1,US,-18000,51,41.1415,-73.3579,48.02,5.99
514,Roald,75,NO,3600,87,62.5833,6.1333,45.16,23.02
515,Kutum,0,SD,7200,17,14.2,24.6667,77.85,10.11
516,Hambantota,97,LK,19800,84,6.1241,81.1185,78.82,15.17
517,Ilula,69,TZ,10800,47,-7.6766,36.0366,74.05,6.53
518,Mazara del Vallo,0,IT,3600,72,37.6641,12.588,63,12.3
519,Lindi,12,TZ,10800,76,-10,39.7167,79.3,7.99
520,Olinda,75,BR,-10800,74,-8.0089,-34.8553,82.13,8.05
521,Nagpur,75,IN,19800,61,21.15,79.1,77.02,2.3
522,Trairi,23,BR,-10800,50,-3.2778,-39.2689,90.01,18.3
523,Buin,0,CL,-10800,24,-33.7333,-70.75,85.05,9.17
524,Kovylkino,100,RU,10800,94,54.0388,43.9139,27.95,8.1
525,St. George's,20,GD,-14400,70,12.0564,-61.7485,85.68,20.71
526,Vulcan,100,RO,7200,87,45.3833,23.2667,36.73,7.47
527,Forsytheganj,100,BY,10800,95,52.6333,29.7333,41.27,7.9
528,Nueva Loja,75,EC,-18000,88,0.0847,-76.8828,81.88,6.91
529,Muli,13,MV,18000,79,2.9167,73.5667,82.44,19.26
530,Bathsheba,40,BB,-14400,58,13.2167,-59.5167,88.41,16.11
531,Warrington,40,GB,0,83,53.3925,-2.5802,56.86,1.01
532,Richards Bay,100,ZA,7200,69,-28.783,32.0377,66.69,6.53
533,Ndélé,29,CF,3600,32,8.4109,20.6473,86.38,2.08
534,Farsund,41,NO,3600,59,58.0948,6.8047,51.06,32.61
535,Qasigiannguit,43,GL,-10800,80,68.8193,-51.1922,8.85,7.65
536,Visnes,75,NO,3600,76,59.3556,5.2242,51.69,27.63
537,Zhigansk,99,RU,32400,97,66.7697,123.3711,-16.69,3.62
538,Yumen,33,CN,28800,44,40.2833,97.2,28.45,10.04
539,Neftçala,75,AZ,14400,79,39.3742,49.2472,52.09,5.1
540,Daram,71,PH,28800,84,11.6341,124.7947,78.73,4.92
541,Guía de Isora,1,ES,0,52,28.2115,-16.7795,67.12,1.99
542,San Juan Bautista,100,PE,-18000,32,-14.0108,-75.7358,63.23,5.79
543,Dillon,69,US,-18000,27,34.4166,-79.3712,56.25,17.78
544,Cancún,75,MX,-18000,74,21.1743,-86.8466,82.33,5.75
545,Pasil,89,PH,28800,93,17.3833,121.1333,64.04,1.52
546,Tagusao,46,PH,28800,80,9.1924,117.8141,80.26,0.72
